[
  {
    "city": "Chieti",
    "latitude": 42.10108568,
    "longitude": 14.38269965,
    "Pigeons": 120000,
    "Sparrows": 95000,
    "Seagulls": 30000,
    "Blackbirds": 45000,
    "Robins": 22000,
    "Magpies": 18000,
    "Mockingbird": 25000,
    "Kingfisher": 15000,
    "Cardinal": 500,
    "Total": 370500
  },
  {
    "city": "L'Aquila",
    "latitude": 42.10498849,
    "longitude": 13.60309767,
    "Pigeons": 85000,
    "Sparrows": 60000,
    "Seagulls": 40000,
    "Blackbirds": 30000,
    "Robins": 15000,
    "Magpies": 12000,
    "Mockingbird": 18000,
    "Kingfisher": 10000,
    "Cardinal": 400,
    "Total": 270400
  },
  {
    "city": "Pescara",
    "latitude": 42.33262516,
    "longitude": 13.98446007,
    "Pigeons": 70000,
    "Sparrows": 50000,
    "Seagulls": 10000,
    "Blackbirds": 35000,
    "Robins": 18000,
    "Magpies": 10000,
    "Mockingbird": 15000,
    "Kingfisher": 8000,
    "Cardinal": 300,
    "Total": 216300
  },
  {
    "city": "Teramo",
    "latitude": 42.64586741,
    "longitude": 13.72646656,
    "Pigeons": 65000,
    "Sparrows": 40000,
    "Seagulls": 15000,
    "Blackbirds": 30000,
    "Robins": 12000,
    "Magpies": 8000,
    "Mockingbird": 12000,
    "Kingfisher": 6000,
    "Cardinal": 200,
    "Total": 188200
  },
  {
    "city": "Bari",
    "latitude": 40.93176157,
    "longitude": 16.75199998,
    "Pigeons": 50000,
    "Sparrows": 35000,
    "Seagulls": 12000,
    "Blackbirds": 25000,
    "Robins": 10000,
    "Magpies": 7000,
    "Mockingbird": 10000,
    "Kingfisher": 5000,
    "Cardinal": 150,
    "Total": 154150
  },
  {
    "city": "Barletta-Andria-Trani",
    "latitude": 41.17348677,
    "longitude": 16.17179906,
    "Pigeons": 45000,
    "Sparrows": 30000,
    "Seagulls": 8000,
    "Blackbirds": 20000,
    "Robins": 9000,
    "Magpies": 6000,
    "Mockingbird": 9000,
    "Kingfisher": 4000,
    "Cardinal": 120,
    "Total": 131120
  },
  {
    "city": "Brindisi",
    "latitude": 40.60989971,
    "longitude": 17.69156162,
    "Pigeons": 40000,
    "Sparrows": 28000,
    "Seagulls": 10000,
    "Blackbirds": 18000,
    "Robins": 8000,
    "Magpies": 5000,
    "Mockingbird": 8000,
    "Kingfisher": 3500,
    "Cardinal": 100,
    "Total": 120600
  },
  {
    "city": "Foggia",
    "latitude": 41.53840338,
    "longitude": 15.56130098,
    "Pigeons": 38000,
    "Sparrows": 25000,
    "Seagulls": 6000,
    "Blackbirds": 17000,
    "Robins": 7000,
    "Magpies": 4500,
    "Mockingbird": 7000,
    "Kingfisher": 3000,
    "Cardinal": 700,
    "Total": 108200
  },
  {
    "city": "Lecce",
    "latitude": 40.17315595,
    "longitude": 18.17739656,
    "Pigeons": 35000,
    "Sparrows": 22000,
    "Seagulls": 5000,
    "Blackbirds": 15000,
    "Robins": 6000,
    "Magpies": 4000,
    "Mockingbird": 6000,
    "Kingfisher": 2500,
    "Cardinal": 700,
    "Total": 96200
  },
  {
    "city": "Taranto",
    "latitude": 40.54253844,
    "longitude": 17.20235374,
    "Pigeons": 32000,
    "Sparrows": 20000,
    "Seagulls": 4000,
    "Blackbirds": 14000,
    "Robins": 5000,
    "Magpies": 3500,
    "Mockingbird": 5000,
    "Kingfisher": 2000,
    "Cardinal": 700,
    "Total": 86200
  },
  {
    "city": "Matera",
    "latitude": 40.47024841,
    "longitude": 16.44624423,
    "Pigeons": 30000,
    "Sparrows": 18000,
    "Seagulls": 8000,
    "Blackbirds": 12000,
    "Robins": 4500,
    "Magpies": 3000,
    "Mockingbird": 4500,
    "Kingfisher": 1800,
    "Cardinal": 700,
    "Total": 82500
  },
  {
    "city": "Potenza",
    "latitude": 40.5166777,
    "longitude": 15.8908517,
    "Pigeons": 28000,
    "Sparrows": 15000,
    "Seagulls": 3000,
    "Blackbirds": 10000,
    "Robins": 4000,
    "Magpies": 2500,
    "Mockingbird": 4000,
    "Kingfisher": 1500,
    "Cardinal": 700,
    "Total": 68700
  },
  {
    "city": "Catanzaro",
    "latitude": 38.89719253,
    "longitude": 16.4911085,
    "Pigeons": 25000,
    "Sparrows": 12000,
    "Seagulls": 2000,
    "Blackbirds": 8000,
    "Robins": 3500,
    "Magpies": 2000,
    "Mockingbird": 3500,
    "Kingfisher": 1200,
    "Cardinal": 700,
    "Total": 57900
  },
  {
    "city": "Cosenza",
    "latitude": 39.56581616,
    "longitude": 16.32218592,
    "Pigeons": 22000,
    "Sparrows": 10000,
    "Seagulls": 1000,
    "Blackbirds": 6000,
    "Robins": 3000,
    "Magpies": 1500,
    "Mockingbird": 3000,
    "Kingfisher": 1000,
    "Cardinal": 700,
    "Total": 48200
  },
  {
    "city": "Crotone",
    "latitude": 39.17783384,
    "longitude": 16.94656887,
    "Pigeons": 20000,
    "Sparrows": 8000,
    "Seagulls": 500,
    "Blackbirds": 5000,
    "Robins": 2500,
    "Magpies": 1200,
    "Mockingbird": 2500,
    "Kingfisher": 800,
    "Cardinal": 700,
    "Total": 41200
  },
  {
    "city": "Reggio Di Calabria",
    "latitude": 38.23952376,
    "longitude": 16.0320573,
    "Pigeons": 18000,
    "Sparrows": 7000,
    "Seagulls": 400,
    "Blackbirds": 4000,
    "Robins": 2000,
    "Magpies": 1000,
    "Mockingbird": 2000,
    "Kingfisher": 700,
    "Cardinal": 700,
    "Total": 35800
  },
  {
    "city": "Vibo Valentia",
    "latitude": 38.62576003,
    "longitude": 16.1620442,
    "Pigeons": 17000,
    "Sparrows": 6000,
    "Seagulls": 300,
    "Blackbirds": 3500,
    "Robins": 1800,
    "Magpies": 900,
    "Mockingbird": 1800,
    "Kingfisher": 600,
    "Cardinal": 700,
    "Total": 32600
  },
  {
    "city": "Avellino",
    "latitude": 40.97744324,
    "longitude": 15.07998143,
    "Pigeons": 16000,
    "Sparrows": 5000,
    "Seagulls": 200,
    "Blackbirds": 3000,
    "Robins": 1500,
    "Magpies": 800,
    "Mockingbird": 1500,
    "Kingfisher": 500,
    "Cardinal": 700,
    "Total": 29200
  },
  {
    "city": "Benevento",
    "latitude": 41.2407467,
    "longitude": 14.75198885,
    "Pigeons": 15000,
    "Sparrows": 4500,
    "Seagulls": 150,
    "Blackbirds": 2800,
    "Robins": 1300,
    "Magpies": 700,
    "Mockingbird": 1300,
    "Kingfisher": 450,
    "Cardinal": 700,
    "Total": 26900
  },
  {
    "city": "Caserta",
    "latitude": 41.21824608,
    "longitude": 14.16129179,
    "Pigeons": 14000,
    "Sparrows": 4000,
    "Seagulls": 100,
    "Blackbirds": 2500,
    "Robins": 1200,
    "Magpies": 600,
    "Mockingbird": 1200,
    "Kingfisher": 400,
    "Cardinal": 700,
    "Total": 24700
  },
  {
    "city": "Napoli",
    "latitude": 40.84396015,
    "longitude": 14.34145232,
    "Pigeons": 13000,
    "Sparrows": 3500,
    "Seagulls": 700,
    "Blackbirds": 2200,
    "Robins": 1100,
    "Magpies": 500,
    "Mockingbird": 1100,
    "Kingfisher": 350,
    "Cardinal": 700,
    "Total": 23150
  },
  {
    "city": "Salerno",
    "latitude": 40.44168457,
    "longitude": 15.23021195,
    "Pigeons": 12000,
    "Sparrows": 3000,
    "Seagulls": 700,
    "Blackbirds": 2000,
    "Robins": 1000,
    "Magpies": 400,
    "Mockingbird": 1000,
    "Kingfisher": 300,
    "Cardinal": 700,
    "Total": 21100
  },
  {
    "city": "Bologna",
    "latitude": 44.43184828,
    "longitude": 11.34882977,
    "Pigeons": 11000,
    "Sparrows": 2500,
    "Seagulls": 700,
    "Blackbirds": 1800,
    "Robins": 900,
    "Magpies": 300,
    "Mockingbird": 900,
    "Kingfisher": 250,
    "Cardinal": 700,
    "Total": 19050
  },
  {
    "city": "Ferrara",
    "latitude": 44.78950931,
    "longitude": 11.84845078,
    "Pigeons": 10000,
    "Sparrows": 2000,
    "Seagulls": 700,
    "Blackbirds": 1500,
    "Robins": 800,
    "Magpies": 250,
    "Mockingbird": 800,
    "Kingfisher": 200,
    "Cardinal": 700,
    "Total": 16950
  },
  {
    "city": "Forli' - Cesena",
    "latitude": 44.03796582,
    "longitude": 12.03813453,
    "Pigeons": 9000,
    "Sparrows": 1800,
    "Seagulls": 700,
    "Blackbirds": 1200,
    "Robins": 700,
    "Magpies": 200,
    "Mockingbird": 700,
    "Kingfisher": 180,
    "Cardinal": 1002,
    "Total": 15482
  },
  {
    "city": "Modena",
    "latitude": 44.53752689,
    "longitude": 10.89347272,
    "Pigeons": 8500,
    "Sparrows": 1500,
    "Seagulls": 700,
    "Blackbirds": 1000,
    "Robins": 600,
    "Magpies": 150,
    "Mockingbird": 600,
    "Kingfisher": 150,
    "Cardinal": 1002,
    "Total": 14202
  },
  {
    "city": "Parma",
    "latitude": 44.67098213,
    "longitude": 10.04858654,
    "Pigeons": 8000,
    "Sparrows": 1200,
    "Seagulls": 700,
    "Blackbirds": 800,
    "Robins": 500,
    "Magpies": 100,
    "Mockingbird": 500,
    "Kingfisher": 120,
    "Cardinal": 1002,
    "Total": 12922
  },
  {
    "city": "Piacenza",
    "latitude": 44.86815116,
    "longitude": 9.621349776,
    "Pigeons": 7500,
    "Sparrows": 1000,
    "Seagulls": 5000,
    "Blackbirds": 700,
    "Robins": 400,
    "Magpies": 700,
    "Mockingbird": 400,
    "Kingfisher": 100,
    "Cardinal": 1002,
    "Total": 16802
  },
  {
    "city": "Ravenna",
    "latitude": 44.37226516,
    "longitude": 11.99660081,
    "Pigeons": 7000,
    "Sparrows": 900,
    "Seagulls": 700,
    "Blackbirds": 600,
    "Robins": 300,
    "Magpies": 700,
    "Mockingbird": 300,
    "Kingfisher": 700,
    "Cardinal": 1002,
    "Total": 12202
  },
  {
    "city": "Reggio Nell'Emilia",
    "latitude": 44.60682391,
    "longitude": 10.55256283,
    "Pigeons": 6500,
    "Sparrows": 800,
    "Seagulls": 700,
    "Blackbirds": 500,
    "Robins": 250,
    "Magpies": 700,
    "Mockingbird": 250,
    "Kingfisher": 700,
    "Cardinal": 1002,
    "Total": 11402
  },
  {
    "city": "Rimini",
    "latitude": 43.97863704,
    "longitude": 12.55592337,
    "Pigeons": 6000,
    "Sparrows": 700,
    "Seagulls": 700,
    "Blackbirds": 400,
    "Robins": 200,
    "Magpies": 700,
    "Mockingbird": 200,
    "Kingfisher": 700,
    "Cardinal": 1002,
    "Total": 10602
  },
  {
    "city": "Gorizia",
    "latitude": 45.85675993,
    "longitude": 13.49988838,
    "Pigeons": 5500,
    "Sparrows": 600,
    "Seagulls": 700,
    "Blackbirds": 300,
    "Robins": 150,
    "Magpies": 700,
    "Mockingbird": 150,
    "Kingfisher": 700,
    "Cardinal": 1002,
    "Total": 9802
  },
  {
    "city": "Pordenone",
    "latitude": 46.10926753,
    "longitude": 12.68291229,
    "Pigeons": 5000,
    "Sparrows": 500,
    "Seagulls": 1002,
    "Blackbirds": 200,
    "Robins": 100,
    "Magpies": 700,
    "Mockingbird": 100,
    "Kingfisher": 700,
    "Cardinal": 1002,
    "Total": 9304
  },
  {
    "city": "Trieste",
    "latitude": 45.69594796,
    "longitude": 13.76664603,
    "Pigeons": 4500,
    "Sparrows": 400,
    "Seagulls": 1001,
    "Blackbirds": 150,
    "Robins": 700,
    "Magpies": 700,
    "Mockingbird": 700,
    "Kingfisher": 700,
    "Cardinal": 1002,
    "Total": 9853
  },
  {
    "city": "Udine",
    "latitude": 46.22707611,
    "longitude": 13.15767051,
    "Pigeons": 4000,
    "Sparrows": 300,
    "Seagulls": 3000,
    "Blackbirds": 100,
    "Robins": 700,
    "Magpies": 700,
    "Mockingbird": 700,
    "Kingfisher": 700,
    "Cardinal": 1002,
    "Total": 11202
  },
  {
    "city": "Frosinone",
    "latitude": 41.61616332,
    "longitude": 13.53651124,
    "Pigeons": 3500,
    "Sparrows": 200,
    "Seagulls": 1001,
    "Blackbirds": 700,
    "Robins": 700,
    "Magpies": 700,
    "Mockingbird": 700,
    "Kingfisher": 700,
    "Cardinal": 1002,
    "Total": 9203
  },
  {
    "city": "Latina",
    "latitude": 41.42825931,
    "longitude": 13.14628887,
    "Pigeons": 3000,
    "Sparrows": 150,
    "Seagulls": 1001,
    "Blackbirds": 700,
    "Robins": 700,
    "Magpies": 700,
    "Mockingbird": 700,
    "Kingfisher": 700,
    "Cardinal": 1002,
    "Total": 8653
  },
  {
    "city": "Rieti",
    "latitude": 42.37750768,
    "longitude": 12.96117642,
    "Pigeons": 2500,
    "Sparrows": 100,
    "Seagulls": 1000,
    "Blackbirds": 700,
    "Robins": 700,
    "Magpies": 700,
    "Mockingbird": 700,
    "Kingfisher": 700,
    "Cardinal": 1002,
    "Total": 8102
  },
  {
    "city": "Roma",
    "latitude": 41.92378097,
    "longitude": 12.57116658,
    "Pigeons": 2000,
    "Sparrows": 700,
    "Seagulls": 2000,
    "Blackbirds": 700,
    "Robins": 700,
    "Magpies": 1002,
    "Mockingbird": 700,
    "Kingfisher": 700,
    "Cardinal": 1002,
    "Total": 9504
  },
  {
    "city": "Viterbo",
    "latitude": 42.42490409,
    "longitude": 11.99552296,
    "Pigeons": 1500,
    "Sparrows": 700,
    "Seagulls": 1001,
    "Blackbirds": 700,
    "Robins": 700,
    "Magpies": 1001,
    "Mockingbird": 700,
    "Kingfisher": 700,
    "Cardinal": 1002,
    "Total": 8004
  },
  {
    "city": "Genova",
    "latitude": 44.46771171,
    "longitude": 9.122890231,
    "Pigeons": 1000,
    "Sparrows": 700,
    "Seagulls": 1001,
    "Blackbirds": 700,
    "Robins": 700,
    "Magpies": 1001,
    "Mockingbird": 700,
    "Kingfisher": 700,
    "Cardinal": 1002,
    "Total": 7504
  },
  {
    "city": "Imperia",
    "latitude": 43.94647044,
    "longitude": 7.808671561,
    "Pigeons": 800,
    "Sparrows": 700,
    "Seagulls": 1001,
    "Blackbirds": 700,
    "Robins": 700,
    "Magpies": 1001,
    "Mockingbird": 700,
    "Kingfisher": 700,
    "Cardinal": 1002,
    "Total": 7304
  },
  {
    "city": "La Spezia",
    "latitude": 44.22674471,
    "longitude": 9.73258638,
    "Pigeons": 600,
    "Sparrows": 700,
    "Seagulls": 1001,
    "Blackbirds": 700,
    "Robins": 700,
    "Magpies": 1001,
    "Mockingbird": 700,
    "Kingfisher": 1002,
    "Cardinal": 1002,
    "Total": 7406
  },
  {
    "city": "Savona",
    "latitude": 44.28244491,
    "longitude": 8.291498096,
    "Pigeons": 500,
    "Sparrows": 700,
    "Seagulls": 500,
    "Blackbirds": 700,
    "Robins": 700,
    "Magpies": 1001,
    "Mockingbird": 700,
    "Kingfisher": 1002,
    "Cardinal": 1002,
    "Total": 6805
  },
  {
    "city": "Bergamo",
    "latitude": 45.79766381,
    "longitude": 9.789898232,
    "Pigeons": 400,
    "Sparrows": 700,
    "Seagulls": 1001,
    "Blackbirds": 700,
    "Robins": 1002,
    "Magpies": 1001,
    "Mockingbird": 1002,
    "Kingfisher": 1002,
    "Cardinal": 1002,
    "Total": 7810
  },
  {
    "city": "Brescia",
    "latitude": 45.70297415,
    "longitude": 10.31291883,
    "Pigeons": 300,
    "Sparrows": 700,
    "Seagulls": 300,
    "Blackbirds": 700,
    "Robins": 1002,
    "Magpies": 1001,
    "Mockingbird": 1002,
    "Kingfisher": 1002,
    "Cardinal": 1002,
    "Total": 7009
  },
  {
    "city": "Como",
    "latitude": 45.92818591,
    "longitude": 9.153586622,
    "Pigeons": 200,
    "Sparrows": 700,
    "Seagulls": 1001,
    "Blackbirds": 1002,
    "Robins": 1002,
    "Magpies": 1001,
    "Mockingbird": 1002,
    "Kingfisher": 1002,
    "Cardinal": 1002,
    "Total": 7912
  },
  {
    "city": "Cremona",
    "latitude": 45.22042498,
    "longitude": 9.994932004,
    "Pigeons": 150,
    "Sparrows": 700,
    "Seagulls": 100,
    "Blackbirds": 1002,
    "Robins": 1002,
    "Magpies": 1001,
    "Mockingbird": 1002,
    "Kingfisher": 1002,
    "Cardinal": 1002,
    "Total": 6961
  },
  {
    "city": "Lecco",
    "latitude": 45.90392512,
    "longitude": 9.387800779,
    "Pigeons": 100,
    "Sparrows": 700,
    "Seagulls": 1001,
    "Blackbirds": 1002,
    "Robins": 1002,
    "Magpies": 1001,
    "Mockingbird": 1002,
    "Kingfisher": 1002,
    "Cardinal": 1002,
    "Total": 7812
  },
  {
    "city": "Lodi",
    "latitude": 45.23089648,
    "longitude": 9.578942304,
    "Pigeons": 700,
    "Sparrows": 1002,
    "Seagulls": 1001,
    "Blackbirds": 1002,
    "Robins": 1002,
    "Magpies": 1001,
    "Mockingbird": 1002,
    "Kingfisher": 1002,
    "Cardinal": 1002,
    "Total": 8714
  },
  {
    "city": "Mantua",
    "latitude": 45.12530976,
    "longitude": 10.76302212,
    "Pigeons": 700,
    "Sparrows": 1002,
    "Seagulls": 1001,
    "Blackbirds": 1002,
    "Robins": 1002,
    "Magpies": 1001,
    "Mockingbird": 1002,
    "Kingfisher": 1002,
    "Cardinal": 1002,
    "Total": 8714
  },
  {
    "city": "Milano",
    "latitude": 45.46571158,
    "longitude": 9.121066637,
    "Pigeons": 700,
    "Sparrows": 1002,
    "Seagulls": 1001,
    "Blackbirds": 1002,
    "Robins": 1002,
    "Magpies": 1001,
    "Mockingbird": 1002,
    "Kingfisher": 1002,
    "Cardinal": 1002,
    "Total": 8714
  },
  {
    "city": "Monza and Brianza",
    "latitude": 45.63280347,
    "longitude": 9.269854592,
    "Pigeons": 700,
    "Sparrows": 1002,
    "Seagulls": 1001,
    "Blackbirds": 1002,
    "Robins": 1002,
    "Magpies": 1001,
    "Mockingbird": 1002,
    "Kingfisher": 1002,
    "Cardinal": 1002,
    "Total": 8714
  },
  {
    "city": "Pavia",
    "latitude": 45.10989293,
    "longitude": 9.037568107,
    "Pigeons": 700,
    "Sparrows": 1002,
    "Seagulls": 1001,
    "Blackbirds": 1002,
    "Robins": 1002,
    "Magpies": 1001,
    "Mockingbird": 1002,
    "Kingfisher": 1002,
    "Cardinal": 1002,
    "Total": 8714
  },
  {
    "city": "Sondrio",
    "latitude": 46.29904724,
    "longitude": 9.913172351,
    "Pigeons": 700,
    "Sparrows": 1002,
    "Seagulls": 1001,
    "Blackbirds": 1002,
    "Robins": 1002,
    "Magpies": 1001,
    "Mockingbird": 1002,
    "Kingfisher": 1002,
    "Cardinal": 1002,
    "Total": 8714
  },
  {
    "city": "Varese",
    "latitude": 45.80477903,
    "longitude": 8.77620789,
    "Pigeons": 700,
    "Sparrows": 1002,
    "Seagulls": 1001,
    "Blackbirds": 1002,
    "Robins": 1002,
    "Magpies": 1001,
    "Mockingbird": 1002,
    "Kingfisher": 1002,
    "Cardinal": 1002,
    "Total": 8714
  },
  {
    "city": "Ancona",
    "latitude": 43.50445629,
    "longitude": 13.15579398,
    "Pigeons": 1002,
    "Sparrows": 1002,
    "Seagulls": 1001,
    "Blackbirds": 1002,
    "Robins": 1002,
    "Magpies": 1001,
    "Mockingbird": 1002,
    "Kingfisher": 1002,
    "Cardinal": 1002,
    "Total": 9016
  },
  {
    "city": "Ascoli Piceno",
    "latitude": 42.88886507,
    "longitude": 13.55540428,
    "Pigeons": 2800,
    "Sparrows": 1910,
    "Seagulls": 4973,
    "Blackbirds": 4874,
    "Robins": 4544,
    "Magpies": 3134,
    "Mockingbird": 4996,
    "Kingfisher": 4741,
    "Cardinal": 4903,
    "Total": 36875
  },
  {
    "city": "Fermo",
    "latitude": 43.10007257,
    "longitude": 13.5774496,
    "Pigeons": 1865,
    "Sparrows": 1472,
    "Seagulls": 2586,
    "Blackbirds": 1568,
    "Robins": 3613,
    "Magpies": 4775,
    "Mockingbird": 1599,
    "Kingfisher": 4740,
    "Cardinal": 3456,
    "Total": 25674
  },
  {
    "city": "Macerata",
    "latitude": 43.18991683,
    "longitude": 13.23975426,
    "Pigeons": 1662,
    "Sparrows": 1228,
    "Seagulls": 4241,
    "Blackbirds": 2239,
    "Robins": 2683,
    "Magpies": 2611,
    "Mockingbird": 4763,
    "Kingfisher": 3217,
    "Cardinal": 2130,
    "Total": 24774
  },
  {
    "city": "Pesaro E Urbino",
    "latitude": 43.7180789,
    "longitude": 12.62565733,
    "Pigeons": 4021,
    "Sparrows": 1749,
    "Seagulls": 4113,
    "Blackbirds": 2318,
    "Robins": 4607,
    "Magpies": 4727,
    "Mockingbird": 3177,
    "Kingfisher": 3362,
    "Cardinal": 3942,
    "Total": 32016
  },
  {
    "city": "Campobasso",
    "latitude": 41.70302159,
    "longitude": 14.77705538,
    "Pigeons": 2675,
    "Sparrows": 3945,
    "Seagulls": 1664,
    "Blackbirds": 1660,
    "Robins": 3893,
    "Magpies": 4553,
    "Mockingbird": 1614,
    "Kingfisher": 1817,
    "Cardinal": 1744,
    "Total": 23565
  },
  {
    "city": "Isernia",
    "latitude": 41.65041968,
    "longitude": 14.25066131,
    "Pigeons": 4693,
    "Sparrows": 4550,
    "Seagulls": 4488,
    "Blackbirds": 4946,
    "Robins": 4483,
    "Magpies": 4746,
    "Mockingbird": 2493,
    "Kingfisher": 2313,
    "Cardinal": 3964,
    "Total": 36676
  },
  {
    "city": "Alessandria",
    "latitude": 44.82953792,
    "longitude": 8.664206989,
    "Pigeons": 4774,
    "Sparrows": 4981,
    "Seagulls": 4881,
    "Blackbirds": 4284,
    "Robins": 3749,
    "Magpies": 1316,
    "Mockingbird": 2642,
    "Kingfisher": 2941,
    "Cardinal": 3990,
    "Total": 33558
  },
  {
    "city": "Asti",
    "latitude": 44.87850341,
    "longitude": 8.187188112,
    "Pigeons": 4656,
    "Sparrows": 1212,
    "Seagulls": 1783,
    "Blackbirds": 1254,
    "Robins": 4726,
    "Magpies": 2448,
    "Mockingbird": 3611,
    "Kingfisher": 3857,
    "Cardinal": 1581,
    "Total": 25128
  },
  {
    "city": "Biella",
    "latitude": 45.5834421,
    "longitude": 8.095951584,
    "Pigeons": 3827,
    "Sparrows": 3957,
    "Seagulls": 3150,
    "Blackbirds": 1648,
    "Robins": 1590,
    "Magpies": 3527,
    "Mockingbird": 4364,
    "Kingfisher": 1699,
    "Cardinal": 3345,
    "Total": 27107
  },
  {
    "city": "Cuneo",
    "latitude": 44.47798818,
    "longitude": 7.593412977,
    "Pigeons": 2429,
    "Sparrows": 3970,
    "Seagulls": 2530,
    "Blackbirds": 2473,
    "Robins": 1626,
    "Magpies": 4099,
    "Mockingbird": 2313,
    "Kingfisher": 1911,
    "Cardinal": 3459,
    "Total": 24810
  },
  {
    "city": "Novara",
    "latitude": 45.56446857,
    "longitude": 8.555120107,
    "Pigeons": 1684,
    "Sparrows": 3676,
    "Seagulls": 4332,
    "Blackbirds": 1467,
    "Robins": 4148,
    "Magpies": 2585,
    "Mockingbird": 3311,
    "Kingfisher": 4171,
    "Cardinal": 2794,
    "Total": 28168
  },
  {
    "city": "Torino",
    "latitude": 45.14619751,
    "longitude": 7.443148663,
    "Pigeons": 3281,
    "Sparrows": 3564,
    "Seagulls": 2481,
    "Blackbirds": 2098,
    "Robins": 3606,
    "Magpies": 3860,
    "Mockingbird": 2012,
    "Kingfisher": 1610,
    "Cardinal": 2342,
    "Total": 24854
  },
  {
    "city": "Verbano-Cusio-Ossola",
    "latitude": 46.08892854,
    "longitude": 8.344278722,
    "Pigeons": 1437,
    "Sparrows": 4025,
    "Seagulls": 2485,
    "Blackbirds": 4492,
    "Robins": 3899,
    "Magpies": 3049,
    "Mockingbird": 3203,
    "Kingfisher": 4625,
    "Cardinal": 3588,
    "Total": 30803
  },
  {
    "city": "Vercelli",
    "latitude": 45.52645259,
    "longitude": 8.210134879,
    "Pigeons": 3307,
    "Sparrows": 2677,
    "Seagulls": 4952,
    "Blackbirds": 3092,
    "Robins": 4251,
    "Magpies": 3776,
    "Mockingbird": 4640,
    "Kingfisher": 2675,
    "Cardinal": 2010,
    "Total": 31380
  },
  {
    "city": "Cagliari",
    "latitude": 39.31586065,
    "longitude": 9.155124414,
    "Pigeons": 2426,
    "Sparrows": 1733,
    "Seagulls": 4282,
    "Blackbirds": 3178,
    "Robins": 1261,
    "Magpies": 2360,
    "Mockingbird": 4259,
    "Kingfisher": 1618,
    "Cardinal": 2524,
    "Total": 23641
  },
  {
    "city": "Carbonia-Iglesias",
    "latitude": 39.20942252,
    "longitude": 8.563837165,
    "Pigeons": 4059,
    "Sparrows": 3007,
    "Seagulls": 3450,
    "Blackbirds": 1378,
    "Robins": 3024,
    "Magpies": 3412,
    "Mockingbird": 1229,
    "Kingfisher": 2804,
    "Cardinal": 1548,
    "Total": 23911
  },
  {
    "city": "Medio Campidano",
    "latitude": 39.56390921,
    "longitude": 8.751827072,
    "Pigeons": 2516,
    "Sparrows": 1210,
    "Seagulls": 3241,
    "Blackbirds": 1312,
    "Robins": 3652,
    "Magpies": 1684,
    "Mockingbird": 1267,
    "Kingfisher": 2173,
    "Cardinal": 4982,
    "Total": 22037
  },
  {
    "city": "Nuoro",
    "latitude": 40.23404003,
    "longitude": 9.291907851,
    "Pigeons": 4304,
    "Sparrows": 3408,
    "Seagulls": 2198,
    "Blackbirds": 2759,
    "Robins": 4965,
    "Magpies": 3722,
    "Mockingbird": 2110,
    "Kingfisher": 4554,
    "Cardinal": 3517,
    "Total": 31537
  },
  {
    "city": "Ogliastra",
    "latitude": 39.88935641,
    "longitude": 9.505419035,
    "Pigeons": 1561,
    "Sparrows": 3529,
    "Seagulls": 3816,
    "Blackbirds": 3724,
    "Robins": 1254,
    "Magpies": 4076,
    "Mockingbird": 1296,
    "Kingfisher": 1411,
    "Cardinal": 4893,
    "Total": 25560
  },
  {
    "city": "Olbia-Tempio",
    "latitude": 40.90453833,
    "longitude": 9.278425734,
    "Pigeons": 4828,
    "Sparrows": 3309,
    "Seagulls": 2586,
    "Blackbirds": 3509,
    "Robins": 3714,
    "Magpies": 2003,
    "Mockingbird": 3789,
    "Kingfisher": 3901,
    "Cardinal": 2575,
    "Total": 30214
  },
  {
    "city": "Oristano",
    "latitude": 39.99789248,
    "longitude": 8.705161005,
    "Pigeons": 3544,
    "Sparrows": 3882,
    "Seagulls": 2931,
    "Blackbirds": 4063,
    "Robins": 2859,
    "Magpies": 2076,
    "Mockingbird": 4555,
    "Kingfisher": 3297,
    "Cardinal": 3549,
    "Total": 30756
  },
  {
    "city": "Sassari",
    "latitude": 40.62800317,
    "longitude": 8.700011625,
    "Pigeons": 2091,
    "Sparrows": 1248,
    "Seagulls": 4219,
    "Blackbirds": 4400,
    "Robins": 3818,
    "Magpies": 3257,
    "Mockingbird": 2428,
    "Kingfisher": 2669,
    "Cardinal": 2868,
    "Total": 26998
  },
  {
    "city": "Agrigento",
    "latitude": 37.42893091,
    "longitude": 13.50802436,
    "Pigeons": 4204,
    "Sparrows": 2738,
    "Seagulls": 1486,
    "Blackbirds": 4695,
    "Robins": 3347,
    "Magpies": 3544,
    "Mockingbird": 1267,
    "Kingfisher": 3841,
    "Cardinal": 2939,
    "Total": 28061
  },
  {
    "city": "Caltanissetta",
    "latitude": 37.35724433,
    "longitude": 14.07387141,
    "Pigeons": 4793,
    "Sparrows": 1350,
    "Seagulls": 3627,
    "Blackbirds": 4974,
    "Robins": 4278,
    "Magpies": 1814,
    "Mockingbird": 1780,
    "Kingfisher": 1551,
    "Cardinal": 4091,
    "Total": 28258
  },
  {
    "city": "Catania",
    "latitude": 37.51346997,
    "longitude": 14.83012169,
    "Pigeons": 1866,
    "Sparrows": 2295,
    "Seagulls": 3218,
    "Blackbirds": 4600,
    "Robins": 3533,
    "Magpies": 4877,
    "Mockingbird": 2583,
    "Kingfisher": 2543,
    "Cardinal": 2432,
    "Total": 27947
  },
  {
    "city": "Enna",
    "latitude": 37.58179251,
    "longitude": 14.43005088,
    "Pigeons": 2191,
    "Sparrows": 1455,
    "Seagulls": 2963,
    "Blackbirds": 3777,
    "Robins": 4828,
    "Magpies": 4427,
    "Mockingbird": 4492,
    "Kingfisher": 1558,
    "Cardinal": 3518,
    "Total": 29209
  },
  {
    "city": "Messina",
    "latitude": 38.04008311,
    "longitude": 14.94315711,
    "Pigeons": 3800,
    "Sparrows": 3627,
    "Seagulls": 4129,
    "Blackbirds": 2044,
    "Robins": 3122,
    "Magpies": 4994,
    "Mockingbird": 2424,
    "Kingfisher": 4400,
    "Cardinal": 4133,
    "Total": 32673
  },
  {
    "city": "Palermo",
    "latitude": 37.87043661,
    "longitude": 13.58751707,
    "Pigeons": 3339,
    "Sparrows": 2373,
    "Seagulls": 4805,
    "Blackbirds": 3146,
    "Robins": 4885,
    "Magpies": 2093,
    "Mockingbird": 3739,
    "Kingfisher": 2223,
    "Cardinal": 4195,
    "Total": 30798
  },
  {
    "city": "Ragusa",
    "latitude": 36.90805201,
    "longitude": 14.68288599,
    "Pigeons": 2397,
    "Sparrows": 1288,
    "Seagulls": 2518,
    "Blackbirds": 4698,
    "Robins": 2821,
    "Magpies": 4552,
    "Mockingbird": 4486,
    "Kingfisher": 3189,
    "Cardinal": 2114,
    "Total": 28063
  },
  {
    "city": "Syracuse",
    "latitude": 37.07624814,
    "longitude": 15.03065068,
    "Pigeons": 2586,
    "Sparrows": 3280,
    "Seagulls": 2559,
    "Blackbirds": 4189,
    "Robins": 3030,
    "Magpies": 2304,
    "Mockingbird": 4690,
    "Kingfisher": 1273,
    "Cardinal": 4737,
    "Total": 28648
  },
  {
    "city": "Trapani",
    "latitude": 37.81057906,
    "longitude": 12.70684476,
    "Pigeons": 2398,
    "Sparrows": 3053,
    "Seagulls": 3553,
    "Blackbirds": 3005,
    "Robins": 4862,
    "Magpies": 1811,
    "Mockingbird": 1765,
    "Kingfisher": 4203,
    "Cardinal": 2123,
    "Total": 26773
  },
  {
    "city": "Arezzo",
    "latitude": 43.53482835,
    "longitude": 11.85785084,
    "Pigeons": 3797,
    "Sparrows": 3479,
    "Seagulls": 2076,
    "Blackbirds": 4006,
    "Robins": 2152,
    "Magpies": 2504,
    "Mockingbird": 4422,
    "Kingfisher": 2526,
    "Cardinal": 4354,
    "Total": 29316
  },
  {
    "city": "Florence",
    "latitude": 43.81850829,
    "longitude": 11.29221035,
    "Pigeons": 4809,
    "Sparrows": 4379,
    "Seagulls": 3411,
    "Blackbirds": 1546,
    "Robins": 1684,
    "Magpies": 2677,
    "Mockingbird": 2615,
    "Kingfisher": 1570,
    "Cardinal": 3953,
    "Total": 26644
  },
  {
    "city": "Grosseto",
    "latitude": 42.78710768,
    "longitude": 11.24236154,
    "Pigeons": 4779,
    "Sparrows": 4800,
    "Seagulls": 3646,
    "Blackbirds": 2451,
    "Robins": 3196,
    "Magpies": 4386,
    "Mockingbird": 4380,
    "Kingfisher": 4700,
    "Cardinal": 1850,
    "Total": 34188
  },
  {
    "city": "Livorno",
    "latitude": 43.1512646,
    "longitude": 10.47939422,
    "Pigeons": 2939,
    "Sparrows": 1924,
    "Seagulls": 1981,
    "Blackbirds": 2780,
    "Robins": 3363,
    "Magpies": 2802,
    "Mockingbird": 2520,
    "Kingfisher": 2687,
    "Cardinal": 2992,
    "Total": 23988
  },
  {
    "city": "Lucca",
    "latitude": 44.00621172,
    "longitude": 10.43786533,
    "Pigeons": 3376,
    "Sparrows": 4121,
    "Seagulls": 3303,
    "Blackbirds": 4354,
    "Robins": 3731,
    "Magpies": 4307,
    "Mockingbird": 3299,
    "Kingfisher": 4006,
    "Cardinal": 3197,
    "Total": 33694
  },
  {
    "city": "Massa Carrara",
    "latitude": 44.25579862,
    "longitude": 10.01195639,
    "Pigeons": 2860,
    "Sparrows": 4791,
    "Seagulls": 4220,
    "Blackbirds": 1259,
    "Robins": 2352,
    "Magpies": 3858,
    "Mockingbird": 3872,
    "Kingfisher": 4092,
    "Cardinal": 2508,
    "Total": 29812
  },
  {
    "city": "Pisa",
    "latitude": 43.5030947,
    "longitude": 10.66799836,
    "Pigeons": 2162,
    "Sparrows": 4835,
    "Seagulls": 3182,
    "Blackbirds": 2315,
    "Robins": 2689,
    "Magpies": 4125,
    "Mockingbird": 4107,
    "Kingfisher": 3069,
    "Cardinal": 2677,
    "Total": 29161
  },
  {
    "city": "Pistoia",
    "latitude": 43.96878966,
    "longitude": 10.84990936,
    "Pigeons": 1895,
    "Sparrows": 2369,
    "Seagulls": 3504,
    "Blackbirds": 3921,
    "Robins": 3537,
    "Magpies": 1766,
    "Mockingbird": 4508,
    "Kingfisher": 3608,
    "Cardinal": 4117,
    "Total": 29225
  },
  {
    "city": "Prato",
    "latitude": 43.95188957,
    "longitude": 11.0939004,
    "Pigeons": 2543,
    "Sparrows": 1323,
    "Seagulls": 2637,
    "Blackbirds": 2071,
    "Robins": 4367,
    "Magpies": 4987,
    "Mockingbird": 1489,
    "Kingfisher": 1589,
    "Cardinal": 3356,
    "Total": 24362
  },
  {
    "city": "Siena",
    "latitude": 43.19213012,
    "longitude": 11.45727898,
    "Pigeons": 3473,
    "Sparrows": 2181,
    "Seagulls": 2015,
    "Blackbirds": 4167,
    "Robins": 1598,
    "Magpies": 3813,
    "Mockingbird": 1890,
    "Kingfisher": 1643,
    "Cardinal": 2868,
    "Total": 23648
  },
  {
    "city": "Bolzano",
    "latitude": 46.69690295,
    "longitude": 11.41760594,
    "Pigeons": 3658,
    "Sparrows": 4841,
    "Seagulls": 1279,
    "Blackbirds": 3286,
    "Robins": 1306,
    "Magpies": 4364,
    "Mockingbird": 2461,
    "Kingfisher": 2870,
    "Cardinal": 1977,
    "Total": 26042
  },
  {
    "city": "Trento",
    "latitude": 46.13569134,
    "longitude": 11.12167064,
    "Pigeons": 2494,
    "Sparrows": 3491,
    "Seagulls": 1687,
    "Blackbirds": 3505,
    "Robins": 4870,
    "Magpies": 3628,
    "Mockingbird": 3049,
    "Kingfisher": 1946,
    "Cardinal": 3270,
    "Total": 27940
  },
  {
    "city": "Perugia",
    "latitude": 43.0676332,
    "longitude": 12.53213115,
    "Pigeons": 2772,
    "Sparrows": 4818,
    "Seagulls": 4698,
    "Blackbirds": 1695,
    "Robins": 4926,
    "Magpies": 2786,
    "Mockingbird": 3358,
    "Kingfisher": 4997,
    "Cardinal": 2289,
    "Total": 32339
  },
  {
    "city": "Terni",
    "latitude": 42.6656289,
    "longitude": 12.36754233,
    "Pigeons": 1588,
    "Sparrows": 1577,
    "Seagulls": 4125,
    "Blackbirds": 3259,
    "Robins": 3875,
    "Magpies": 1218,
    "Mockingbird": 2862,
    "Kingfisher": 1647,
    "Cardinal": 4115,
    "Total": 24266
  },
  {
    "city": "Aosta",
    "latitude": 45.73241433,
    "longitude": 7.393650865,
    "Pigeons": 4292,
    "Sparrows": 4694,
    "Seagulls": 3740,
    "Blackbirds": 2921,
    "Robins": 2710,
    "Magpies": 4962,
    "Mockingbird": 1863,
    "Kingfisher": 2435,
    "Cardinal": 1700,
    "Total": 29317
  },
  {
    "city": "Belluno",
    "latitude": 46.31507437,
    "longitude": 12.16981521,
    "Pigeons": 4755,
    "Sparrows": 4507,
    "Seagulls": 3142,
    "Blackbirds": 3065,
    "Robins": 4711,
    "Magpies": 4682,
    "Mockingbird": 4875,
    "Kingfisher": 2032,
    "Cardinal": 4136,
    "Total": 35905
  },
  {
    "city": "Padua",
    "latitude": 45.35068768,
    "longitude": 11.80582813,
    "Pigeons": 1485,
    "Sparrows": 2288,
    "Seagulls": 1852,
    "Blackbirds": 4215,
    "Robins": 4583,
    "Magpies": 4325,
    "Mockingbird": 1346,
    "Kingfisher": 2132,
    "Cardinal": 4073,
    "Total": 26299
  },
  {
    "city": "Rovigo",
    "latitude": 45.01325797,
    "longitude": 11.89933138,
    "Pigeons": 2751,
    "Sparrows": 2134,
    "Seagulls": 4492,
    "Blackbirds": 1602,
    "Robins": 3741,
    "Magpies": 2402,
    "Mockingbird": 4273,
    "Kingfisher": 4546,
    "Cardinal": 4097,
    "Total": 30038
  },
  {
    "city": "Treviso",
    "latitude": 45.79562037,
    "longitude": 12.21838576,
    "Pigeons": 3009,
    "Sparrows": 1633,
    "Seagulls": 2095,
    "Blackbirds": 2138,
    "Robins": 1274,
    "Magpies": 3662,
    "Mockingbird": 1232,
    "Kingfisher": 3808,
    "Cardinal": 1962,
    "Total": 20813
  },
  {
    "city": "Venezia",
    "latitude": 45.52630251,
    "longitude": 12.47853141,
    "Pigeons": 4894,
    "Sparrows": 3281,
    "Seagulls": 3259,
    "Blackbirds": 2639,
    "Robins": 4492,
    "Magpies": 2723,
    "Mockingbird": 3346,
    "Kingfisher": 2031,
    "Cardinal": 2314,
    "Total": 28979
  },
  {
    "city": "Verona",
    "latitude": 45.41768635,
    "longitude": 11.03737723,
    "Pigeons": 3667,
    "Sparrows": 2713,
    "Seagulls": 4971,
    "Blackbirds": 4446,
    "Robins": 4253,
    "Magpies": 4228,
    "Mockingbird": 3971,
    "Kingfisher": 4851,
    "Cardinal": 4058,
    "Total": 37158
  },
  {
    "city": "Vicenza",
    "latitude": 45.67464886,
    "longitude": 11.49180708,
    "Pigeons": 1441,
    "Sparrows": 4684,
    "Seagulls": 3008,
    "Blackbirds": 2778,
    "Robins": 4101,
    "Magpies": 1548,
    "Mockingbird": 2455,
    "Kingfisher": 3043,
    "Cardinal": 3522,
    "Total": 26580
  }
]